{
    "cities": [
        {
            "insee_code": "05142",
            "city_code": "st firmin",
            "zip_code": "05800",
            "label": "st firmin en valgodemard",
            "latitude": "44.793514305",
            "longitude": "6.025693765",
            "department_name": "hautes-alpes",
            "department_number": "05",
            "region_name": "provence-alpes-côte d'azur",
            "region_geojson_name": "Provence-Alpes-Côte d'Azur"
        },
        {
            "insee_code": "05152",
            "city_code": "st maurice en valgodemard",
            "zip_code": "05800",
            "label": "st maurice en valgodemard",
            "latitude": "44.798496053",
            "longitude": "6.112547256",
            "department_name": "hautes-alpes",
            "department_number": "05",
            "region_name": "provence-alpes-côte d'azur",
            "region_geojson_name": "Provence-Alpes-Côte d'Azur"
        },
        {
            "insee_code": "05009",
            "city_code": "aspres les corps",
            "zip_code": "05800",
            "label": "aspres les corps",
            "latitude": "44.812759793",
            "longitude": "5.999525437",
            "department_name": "hautes-alpes",
            "department_number": "05",
            "region_name": "provence-alpes-côte d'azur",
            "region_geojson_name": "Provence-Alpes-Côte d'Azur"
        },
        {
            "insee_code": "05064",
            "city_code": "la chapelle en valgaudemar",
            "zip_code": "05800",
            "label": "la chapelle en valgaudemar",
            "latitude": "44.816614679",
            "longitude": "6.242955361",
            "department_name": "hautes-alpes",
            "department_number": "05",
            "region_name": "provence-alpes-côte d'azur",
            "region_geojson_name": "Provence-Alpes-Côte d'Azur"
        },
        {
            "insee_code": "05182",
            "city_code": "villar loubiere",
            "zip_code": "05800",
            "label": "villar loubiere",
            "latitude": "44.836878433",
            "longitude": "6.135695743",
            "department_name": "hautes-alpes",
            "department_number": "05",
            "region_name": "provence-alpes-côte d'azur",
            "region_geojson_name": "Provence-Alpes-Côte d'Azur"
        },
        {
            "insee_code": "05039",
            "city_code": "aubessagne",
            "zip_code": "05800",
            "label": "aubessagne",
            "latitude": "44.7447241",
            "longitude": "6.029953568",
            "department_name": "hautes-alpes",
            "department_number": "05",
            "region_name": "provence-alpes-côte d'azur",
            "region_geojson_name": "Provence-Alpes-Côte d'Azur"
        },
        {
            "insee_code": "05062",
            "city_code": "le glaizil",
            "zip_code": "05800",
            "label": "le glaizil",
            "latitude": "44.747997252",
            "longitude": "5.974663529",
            "department_name": "hautes-alpes",
            "department_number": "05",
            "region_name": "provence-alpes-côte d'azur",
            "region_geojson_name": "Provence-Alpes-Côte d'Azur"
        },
        {
            "insee_code": "05144",
            "city_code": "st jacques en valgodemard",
            "zip_code": "05800",
            "label": "st jacques en valgodemard",
            "latitude": "44.774267913",
            "longitude": "6.069542318",
            "department_name": "hautes-alpes",
            "department_number": "05",
            "region_name": "provence-alpes-côte d'azur",
            "region_geojson_name": "Provence-Alpes-Côte d'Azur"
        },
        {
            "insee_code": "04006",
            "city_code": "allos",
            "zip_code": "04260",
            "label": "allos",
            "latitude": "44.26188021",
            "longitude": "6.626633132",
            "department_name": "alpes-de-haute-provence",
            "department_number": "04",
            "region_name": "provence-alpes-côte d'azur",
            "region_geojson_name": "Provence-Alpes-Côte d'Azur"
        },
        {
            "insee_code": "04022",
            "city_code": "barreme",
            "zip_code": "04330",
            "label": "barreme",
            "latitude": "43.946018481",
            "longitude": "6.377964622",
            "department_name": "alpes-de-haute-provence",
            "department_number": "04",
            "region_name": "provence-alpes-côte d'azur",
            "region_geojson_name": "Provence-Alpes-Côte d'Azur"
        },
        {
            "insee_code": "04025",
            "city_code": "beauvezer",
            "zip_code": "04370",
            "label": "beauvezer",
            "latitude": "44.14408455",
            "longitude": "6.597855502",
            "department_name": "alpes-de-haute-provence",
            "department_number": "04",
            "region_name": "provence-alpes-côte d'azur",
            "region_geojson_name": "Provence-Alpes-Côte d'Azur"
        },
        {
            "insee_code": "04031",
            "city_code": "bras d asse",
            "zip_code": "04270",
            "label": "bras d asse",
            "latitude": "43.926508903",
            "longitude": "6.126571605",
            "department_name": "alpes-de-haute-provence",
            "department_number": "04",
            "region_name": "provence-alpes-côte d'azur",
            "region_geojson_name": "Provence-Alpes-Côte d'Azur"
        },
        {
            "insee_code": "04043",
            "city_code": "val de chalvagne",
            "zip_code": "04320",
            "label": "val de chalvagne",
            "latitude": "43.90470905",
            "longitude": "6.765453535",
            "department_name": "alpes-de-haute-provence",
            "department_number": "04",
            "region_name": "provence-alpes-côte d'azur",
            "region_geojson_name": "Provence-Alpes-Côte d'Azur"
        },
        {
            "insee_code": "04043",
            "city_code": "val de chalvagne",
            "zip_code": "04320",
            "label": "val de chalvagne",
            "latitude": "43.90470905",
            "longitude": "6.765453535",
            "department_name": "alpes-de-haute-provence",
            "department_number": "04",
            "region_name": "provence-alpes-côte d'azur",
            "region_geojson_name": "Provence-Alpes-Côte d'Azur"
        },
        {
            "insee_code": "04045",
            "city_code": "cereste",
            "zip_code": "04280",
            "label": "cereste",
            "latitude": "43.850601803",
            "longitude": "5.589946967",
            "department_name": "alpes-de-haute-provence",
            "department_number": "04",
            "region_name": "provence-alpes-côte d'azur",
            "region_geojson_name": "Provence-Alpes-Côte d'Azur"
        },
        {
            "insee_code": "04050",
            "city_code": "chateaufort",
            "zip_code": "04250",
            "label": "chateaufort",
            "latitude": "44.27547618",
            "longitude": "6.029886999",
            "department_name": "alpes-de-haute-provence",
            "department_number": "04",
            "region_name": "provence-alpes-côte d'azur",
            "region_geojson_name": "Provence-Alpes-Côte d'Azur"
        },
        {
            "insee_code": "04074",
            "city_code": "entrages",
            "zip_code": "04270",
            "label": "entrages",
            "latitude": "44.038097556",
            "longitude": "6.268584989",
            "department_name": "alpes-de-haute-provence",
            "department_number": "04",
            "region_name": "provence-alpes-côte d'azur",
            "region_geojson_name": "Provence-Alpes-Côte d'Azur"
        },
        {
            "insee_code": "04075",
            "city_code": "entrepierres",
            "zip_code": "04200",
            "label": "entrepierres",
            "latitude": "44.195957297",
            "longitude": "6.022176931",
            "department_name": "alpes-de-haute-provence",
            "department_number": "04",
            "region_name": "provence-alpes-côte d'azur",
            "region_geojson_name": "Provence-Alpes-Côte d'Azur"
        },
        {
            "insee_code": "04084",
            "city_code": "estoublon",
            "zip_code": "04270",
            "label": "estoublon",
            "latitude": "43.943131855",
            "longitude": "6.193528261",
            "department_name": "alpes-de-haute-provence",
            "department_number": "04",
            "region_name": "provence-alpes-côte d'azur",
            "region_geojson_name": "Provence-Alpes-Côte d'Azur"
        },
        {
            "insee_code": "04084",
            "city_code": "estoublon",
            "zip_code": "04270",
            "label": "estoublon",
            "latitude": "43.943131855",
            "longitude": "6.193528261",
            "department_name": "alpes-de-haute-provence",
            "department_number": "04",
            "region_name": "provence-alpes-côte d'azur",
            "region_geojson_name": "Provence-Alpes-Côte d'Azur"
        },
        {
            "insee_code": "04102",
            "city_code": "le lauzet ubaye",
            "zip_code": "04340",
            "label": "le lauzet ubaye",
            "latitude": "44.432236396",
            "longitude": "6.419667353",
            "department_name": "alpes-de-haute-provence",
            "department_number": "04",
            "region_name": "provence-alpes-côte d'azur",
            "region_geojson_name": "Provence-Alpes-Côte d'Azur"
        },
        {
            "insee_code": "04104",
            "city_code": "limans",
            "zip_code": "04300",
            "label": "limans",
            "latitude": "43.986945683",
            "longitude": "5.723316286",
            "department_name": "alpes-de-haute-provence",
            "department_number": "04",
            "region_name": "provence-alpes-côte d'azur",
            "region_geojson_name": "Provence-Alpes-Côte d'Azur"
        },
        {
            "insee_code": "04118",
            "city_code": "melve",
            "zip_code": "04250",
            "label": "melve",
            "latitude": "44.356110232",
            "longitude": "5.992797499",
            "department_name": "alpes-de-haute-provence",
            "department_number": "04",
            "region_name": "provence-alpes-côte d'azur",
            "region_geojson_name": "Provence-Alpes-Côte d'Azur"
        },
        {
            "insee_code": "04121",
            "city_code": "mezel",
            "zip_code": "04270",
            "label": "mezel",
            "latitude": "43.997939414",
            "longitude": "6.178912369",
            "department_name": "alpes-de-haute-provence",
            "department_number": "04",
            "region_name": "provence-alpes-côte d'azur",
            "region_geojson_name": "Provence-Alpes-Côte d'Azur"
        },
        {
            "insee_code": "04134",
            "city_code": "la motte du caire",
            "zip_code": "04250",
            "label": "la motte du caire",
            "latitude": "44.341272519",
            "longitude": "6.029901084",
            "department_name": "alpes-de-haute-provence",
            "department_number": "04",
            "region_name": "provence-alpes-côte d'azur",
            "region_geojson_name": "Provence-Alpes-Côte d'Azur"
        },
        {
            "insee_code": "04138",
            "city_code": "niozelles",
            "zip_code": "04300",
            "label": "niozelles",
            "latitude": "43.931981385",
            "longitude": "5.847109712",
            "department_name": "alpes-de-haute-provence",
            "department_number": "04",
            "region_name": "provence-alpes-côte d'azur",
            "region_geojson_name": "Provence-Alpes-Côte d'Azur"
        },
        {
            "insee_code": "04140",
            "city_code": "les omergues",
            "zip_code": "04200",
            "label": "les omergues",
            "latitude": "44.152429755",
            "longitude": "5.589061033",
            "department_name": "alpes-de-haute-provence",
            "department_number": "04",
            "region_name": "provence-alpes-côte d'azur",
            "region_geojson_name": "Provence-Alpes-Côte d'Azur"
        },
        {
            "insee_code": "04141",
            "city_code": "ongles",
            "zip_code": "04230",
            "label": "ongles",
            "latitude": "44.031788081",
            "longitude": "5.725284305",
            "department_name": "alpes-de-haute-provence",
            "department_number": "04",
            "region_name": "provence-alpes-côte d'azur",
            "region_geojson_name": "Provence-Alpes-Côte d'Azur"
        },
        {
            "insee_code": "04174",
            "city_code": "st benoit",
            "zip_code": "04240",
            "label": "st benoit",
            "latitude": "43.963537056",
            "longitude": "6.724013449",
            "department_name": "alpes-de-haute-provence",
            "department_number": "04",
            "region_name": "provence-alpes-côte d'azur",
            "region_geojson_name": "Provence-Alpes-Côte d'Azur"
        },
        {
            "insee_code": "04177",
            "city_code": "hautes duyes",
            "zip_code": "04380",
            "label": "hautes duyes",
            "latitude": "44.194662453",
            "longitude": "6.174168163",
            "department_name": "alpes-de-haute-provence",
            "department_number": "04",
            "region_name": "provence-alpes-côte d'azur",
            "region_geojson_name": "Provence-Alpes-Côte d'Azur"
        },
        {
            "insee_code": "04179",
            "city_code": "st geniez",
            "zip_code": "04200",
            "label": "st geniez",
            "latitude": "44.233000719",
            "longitude": "6.061896639",
            "department_name": "alpes-de-haute-provence",
            "department_number": "04",
            "region_name": "provence-alpes-côte d'azur",
            "region_geojson_name": "Provence-Alpes-Côte d'Azur"
        },
        {
            "insee_code": "04199",
            "city_code": "st vincent sur jabron",
            "zip_code": "04200",
            "label": "st vincent sur jabron",
            "latitude": "44.170036154",
            "longitude": "5.7479091",
            "department_name": "alpes-de-haute-provence",
            "department_number": "04",
            "region_name": "provence-alpes-côte d'azur",
            "region_geojson_name": "Provence-Alpes-Côte d'Azur"
        },
        {
            "insee_code": "04206",
            "city_code": "sigonce",
            "zip_code": "04300",
            "label": "sigonce",
            "latitude": "44.004678993",
            "longitude": "5.856728185",
            "department_name": "alpes-de-haute-provence",
            "department_number": "04",
            "region_name": "provence-alpes-côte d'azur",
            "region_geojson_name": "Provence-Alpes-Côte d'Azur"
        },
        {
            "insee_code": "04214",
            "city_code": "tartonne",
            "zip_code": "04330",
            "label": "tartonne",
            "latitude": "44.078544551",
            "longitude": "6.383801164",
            "department_name": "alpes-de-haute-provence",
            "department_number": "04",
            "region_name": "provence-alpes-côte d'azur",
            "region_geojson_name": "Provence-Alpes-Côte d'Azur"
        },
        {
            "insee_code": "04233",
            "city_code": "vaumeilh",
            "zip_code": "04200",
            "label": "vaumeilh",
            "latitude": "44.290221939",
            "longitude": "5.955965989",
            "department_name": "alpes-de-haute-provence",
            "department_number": "04",
            "region_name": "provence-alpes-côte d'azur",
            "region_geojson_name": "Provence-Alpes-Côte d'Azur"
        },
        {
            "insee_code": "06011",
            "city_code": "beaulieu sur mer",
            "zip_code": "06310",
            "label": "beaulieu sur mer",
            "latitude": "43.708203698",
            "longitude": "7.331518399",
            "department_name": "alpes-maritimes",
            "department_number": "06",
            "region_name": "provence-alpes-côte d'azur",
            "region_geojson_name": "Provence-Alpes-Côte d'Azur"
        },
        {
            "insee_code": "06015",
            "city_code": "berre les alpes",
            "zip_code": "06390",
            "label": "berre les alpes",
            "latitude": "43.837524705",
            "longitude": "7.330604297",
            "department_name": "alpes-maritimes",
            "department_number": "06",
            "region_name": "provence-alpes-côte d'azur",
            "region_geojson_name": "Provence-Alpes-Côte d'Azur"
        },
        {
            "insee_code": "06054",
            "city_code": "drap",
            "zip_code": "06340",
            "label": "drap",
            "latitude": "43.758269663",
            "longitude": "7.337322861",
            "department_name": "alpes-maritimes",
            "department_number": "06",
            "region_name": "provence-alpes-côte d'azur",
            "region_geojson_name": "Provence-Alpes-Côte d'Azur"
        },
        {
            "insee_code": "06087",
            "city_code": "les mujouls",
            "zip_code": "06910",
            "label": "les mujouls",
            "latitude": "43.871818401",
            "longitude": "6.859294537",
            "department_name": "alpes-maritimes",
            "department_number": "06",
            "region_name": "provence-alpes-côte d'azur",
            "region_geojson_name": "Provence-Alpes-Côte d'Azur"
        },
        {
            "insee_code": "06107",
            "city_code": "la roque en provence",
            "zip_code": "06910",
            "label": "la roque en provence",
            "latitude": "43.849429011",
            "longitude": "6.990664945",
            "department_name": "alpes-maritimes",
            "department_number": "06",
            "region_name": "provence-alpes-côte d'azur",
            "region_geojson_name": "Provence-Alpes-Côte d'Azur"
        },
        {
            "insee_code": "06149",
            "city_code": "la trinite",
            "zip_code": "06340",
            "label": "la trinite",
            "latitude": "43.74328261",
            "longitude": "7.339274981",
            "department_name": "alpes-maritimes",
            "department_number": "06",
            "region_name": "provence-alpes-côte d'azur",
            "region_geojson_name": "Provence-Alpes-Côte d'Azur"
        },
        {
            "insee_code": "04023",
            "city_code": "bayons",
            "zip_code": "04250",
            "label": "bayons",
            "latitude": "44.325166073",
            "longitude": "6.172891445",
            "department_name": "alpes-de-haute-provence",
            "department_number": "04",
            "region_name": "provence-alpes-côte d'azur",
            "region_geojson_name": "Provence-Alpes-Côte d'Azur"
        },
        {
            "insee_code": "04030",
            "city_code": "blieux",
            "zip_code": "04330",
            "label": "blieux",
            "latitude": "43.874518094",
            "longitude": "6.36267595",
            "department_name": "alpes-de-haute-provence",
            "department_number": "04",
            "region_name": "provence-alpes-côte d'azur",
            "region_geojson_name": "Provence-Alpes-Côte d'Azur"
        },
        {
            "insee_code": "04033",
            "city_code": "ubaye serre poncon",
            "zip_code": "04340",
            "label": "ubaye serre poncon",
            "latitude": "44.441498992",
            "longitude": "6.31859203",
            "department_name": "alpes-de-haute-provence",
            "department_number": "04",
            "region_name": "provence-alpes-côte d'azur",
            "region_geojson_name": "Provence-Alpes-Côte d'Azur"
        },
        {
            "insee_code": "04042",
            "city_code": "castellet les sausses",
            "zip_code": "04320",
            "label": "castellet les sausses",
            "latitude": "44.040311161",
            "longitude": "6.734635186",
            "department_name": "alpes-de-haute-provence",
            "department_number": "04",
            "region_name": "provence-alpes-côte d'azur",
            "region_geojson_name": "Provence-Alpes-Côte d'Azur"
        },
        {
            "insee_code": "04051",
            "city_code": "chateauneuf miravail",
            "zip_code": "04200",
            "label": "chateauneuf miravail",
            "latitude": "44.153306084",
            "longitude": "5.717664446",
            "department_name": "alpes-de-haute-provence",
            "department_number": "04",
            "region_name": "provence-alpes-côte d'azur",
            "region_geojson_name": "Provence-Alpes-Côte d'Azur"
        },
        {
            "insee_code": "04057",
            "city_code": "clamensane",
            "zip_code": "04250",
            "label": "clamensane",
            "latitude": "44.328611649",
            "longitude": "6.078454454",
            "department_name": "alpes-de-haute-provence",
            "department_number": "04",
            "region_name": "provence-alpes-côte d'azur",
            "region_geojson_name": "Provence-Alpes-Côte d'Azur"
        },
        {
            "insee_code": "04063",
            "city_code": "corbieres en provence",
            "zip_code": "04220",
            "label": "corbieres en provence",
            "latitude": "43.760927778",
            "longitude": "5.745337356",
            "department_name": "alpes-de-haute-provence",
            "department_number": "04",
            "region_name": "provence-alpes-côte d'azur",
            "region_geojson_name": "Provence-Alpes-Côte d'Azur"
        },
        {
            "insee_code": "04075",
            "city_code": "entrepierres",
            "zip_code": "04200",
            "label": "entrepierres",
            "latitude": "44.195957297",
            "longitude": "6.022176931",
            "department_name": "alpes-de-haute-provence",
            "department_number": "04",
            "region_name": "provence-alpes-côte d'azur",
            "region_geojson_name": "Provence-Alpes-Côte d'Azur"
        },
        {
            "insee_code": "04107",
            "city_code": "majastres",
            "zip_code": "04270",
            "label": "majastres",
            "latitude": "43.8981506",
            "longitude": "6.283322118",
            "department_name": "alpes-de-haute-provence",
            "department_number": "04",
            "region_name": "provence-alpes-côte d'azur",
            "region_geojson_name": "Provence-Alpes-Côte d'Azur"
        },
        {
            "insee_code": "04108",
            "city_code": "malijai",
            "zip_code": "04350",
            "label": "malijai",
            "latitude": "44.033998504",
            "longitude": "6.050637253",
            "department_name": "alpes-de-haute-provence",
            "department_number": "04",
            "region_name": "provence-alpes-côte d'azur",
            "region_geojson_name": "Provence-Alpes-Côte d'Azur"
        },
        {
            "insee_code": "04109",
            "city_code": "mallefougasse auges",
            "zip_code": "04230",
            "label": "mallefougasse auges",
            "latitude": "44.076262718",
            "longitude": "5.898037403",
            "department_name": "alpes-de-haute-provence",
            "department_number": "04",
            "region_name": "provence-alpes-côte d'azur",
            "region_geojson_name": "Provence-Alpes-Côte d'Azur"
        },
        {
            "insee_code": "04111",
            "city_code": "mane",
            "zip_code": "04300",
            "label": "mane",
            "latitude": "43.938652158",
            "longitude": "5.743060501",
            "department_name": "alpes-de-haute-provence",
            "department_number": "04",
            "region_name": "provence-alpes-côte d'azur",
            "region_geojson_name": "Provence-Alpes-Côte d'Azur"
        },
        {
            "insee_code": "04115",
            "city_code": "meailles",
            "zip_code": "04240",
            "label": "meailles",
            "latitude": "44.040316899",
            "longitude": "6.644790156",
            "department_name": "alpes-de-haute-provence",
            "department_number": "04",
            "region_name": "provence-alpes-côte d'azur",
            "region_geojson_name": "Provence-Alpes-Côte d'Azur"
        },
        {
            "insee_code": "04145",
            "city_code": "peipin",
            "zip_code": "04200",
            "label": "peipin",
            "latitude": "44.141686042",
            "longitude": "5.94282764",
            "department_name": "alpes-de-haute-provence",
            "department_number": "04",
            "region_name": "provence-alpes-côte d'azur",
            "region_geojson_name": "Provence-Alpes-Côte d'Azur"
        },
        {
            "insee_code": "04164",
            "city_code": "revest st martin",
            "zip_code": "04230",
            "label": "revest st martin",
            "latitude": "44.019570544",
            "longitude": "5.823168031",
            "department_name": "alpes-de-haute-provence",
            "department_number": "04",
            "region_name": "provence-alpes-côte d'azur",
            "region_geojson_name": "Provence-Alpes-Côte d'Azur"
        },
        {
            "insee_code": "04190",
            "city_code": "st martin les eaux",
            "zip_code": "04300",
            "label": "st martin les eaux",
            "latitude": "43.8716154",
            "longitude": "5.741335785",
            "department_name": "alpes-de-haute-provence",
            "department_number": "04",
            "region_name": "provence-alpes-côte d'azur",
            "region_geojson_name": "Provence-Alpes-Côte d'Azur"
        },
        {
            "insee_code": "04200",
            "city_code": "salignac",
            "zip_code": "04290",
            "label": "salignac",
            "latitude": "44.157860493",
            "longitude": "5.988662583",
            "department_name": "alpes-de-haute-provence",
            "department_number": "04",
            "region_name": "provence-alpes-côte d'azur",
            "region_geojson_name": "Provence-Alpes-Côte d'Azur"
        },
        {
            "insee_code": "04202",
            "city_code": "sausses",
            "zip_code": "04320",
            "label": "sausses",
            "latitude": "44.012363629",
            "longitude": "6.779070227",
            "department_name": "alpes-de-haute-provence",
            "department_number": "04",
            "region_name": "provence-alpes-côte d'azur",
            "region_geojson_name": "Provence-Alpes-Côte d'Azur"
        },
        {
            "insee_code": "04204",
            "city_code": "senez",
            "zip_code": "04330",
            "label": "senez",
            "latitude": "43.922554623",
            "longitude": "6.368099674",
            "department_name": "alpes-de-haute-provence",
            "department_number": "04",
            "region_name": "provence-alpes-côte d'azur",
            "region_geojson_name": "Provence-Alpes-Côte d'Azur"
        },
        {
            "insee_code": "04207",
            "city_code": "sigoyer",
            "zip_code": "04200",
            "label": "sigoyer",
            "latitude": "44.322367447",
            "longitude": "5.961125378",
            "department_name": "alpes-de-haute-provence",
            "department_number": "04",
            "region_name": "provence-alpes-côte d'azur",
            "region_geojson_name": "Provence-Alpes-Côte d'Azur"
        },
        {
            "insee_code": "04211",
            "city_code": "sourribes",
            "zip_code": "04290",
            "label": "sourribes",
            "latitude": "44.158626341",
            "longitude": "6.044877653",
            "department_name": "alpes-de-haute-provence",
            "department_number": "04",
            "region_name": "provence-alpes-côte d'azur",
            "region_geojson_name": "Provence-Alpes-Côte d'Azur"
        },
        {
            "insee_code": "04217",
            "city_code": "thoard",
            "zip_code": "04380",
            "label": "thoard",
            "latitude": "44.147071311",
            "longitude": "6.124111742",
            "department_name": "alpes-de-haute-provence",
            "department_number": "04",
            "region_name": "provence-alpes-côte d'azur",
            "region_geojson_name": "Provence-Alpes-Côte d'Azur"
        },
        {
            "insee_code": "04231",
            "city_code": "valernes",
            "zip_code": "04200",
            "label": "valernes",
            "latitude": "44.25188317",
            "longitude": "5.9692573620000005",
            "department_name": "alpes-de-haute-provence",
            "department_number": "04",
            "region_name": "provence-alpes-côte d'azur",
            "region_geojson_name": "Provence-Alpes-Côte d'Azur"
        },
        {
            "insee_code": "06032",
            "city_code": "cap d ail",
            "zip_code": "06320",
            "label": "cap d ail",
            "latitude": "43.72539042",
            "longitude": "7.401098833",
            "department_name": "alpes-maritimes",
            "department_number": "06",
            "region_name": "provence-alpes-côte d'azur",
            "region_geojson_name": "Provence-Alpes-Côte d'Azur"
        },
        {
            "insee_code": "06045",
            "city_code": "collongues",
            "zip_code": "06910",
            "label": "collongues",
            "latitude": "43.893331387",
            "longitude": "6.863788356",
            "department_name": "alpes-maritimes",
            "department_number": "06",
            "region_name": "provence-alpes-côte d'azur",
            "region_geojson_name": "Provence-Alpes-Côte d'Azur"
        },
        {
            "insee_code": "06048",
            "city_code": "contes",
            "zip_code": "06390",
            "label": "contes",
            "latitude": "43.809015431",
            "longitude": "7.324343911",
            "department_name": "alpes-maritimes",
            "department_number": "06",
            "region_name": "provence-alpes-côte d'azur",
            "region_geojson_name": "Provence-Alpes-Côte d'Azur"
        },
        {
            "insee_code": "06106",
            "city_code": "roquesteron",
            "zip_code": "06910",
            "label": "roquesteron",
            "latitude": "43.867789838",
            "longitude": "7.024253733",
            "department_name": "alpes-maritimes",
            "department_number": "06",
            "region_name": "provence-alpes-côte d'azur",
            "region_geojson_name": "Provence-Alpes-Côte d'Azur"
        },
        {
            "insee_code": "06136",
            "city_code": "sospel",
            "zip_code": "06380",
            "label": "sospel",
            "latitude": "43.884291324",
            "longitude": "7.447606672",
            "department_name": "alpes-maritimes",
            "department_number": "06",
            "region_name": "provence-alpes-côte d'azur",
            "region_geojson_name": "Provence-Alpes-Côte d'Azur"
        },
        {
            "insee_code": "04016",
            "city_code": "authon",
            "zip_code": "04200",
            "label": "authon",
            "latitude": "44.249655912",
            "longitude": "6.15141069",
            "department_name": "alpes-de-haute-provence",
            "department_number": "04",
            "region_name": "provence-alpes-côte d'azur",
            "region_geojson_name": "Provence-Alpes-Côte d'Azur"
        },
        {
            "insee_code": "04023",
            "city_code": "bayons",
            "zip_code": "04250",
            "label": "bayons",
            "latitude": "44.325166073",
            "longitude": "6.172891445",
            "department_name": "alpes-de-haute-provence",
            "department_number": "04",
            "region_name": "provence-alpes-côte d'azur",
            "region_geojson_name": "Provence-Alpes-Côte d'Azur"
        },
        {
            "insee_code": "04028",
            "city_code": "beynes",
            "zip_code": "04270",
            "label": "beynes",
            "latitude": "43.983579453",
            "longitude": "6.24065297",
            "department_name": "alpes-de-haute-provence",
            "department_number": "04",
            "region_name": "provence-alpes-côte d'azur",
            "region_geojson_name": "Provence-Alpes-Côte d'Azur"
        },
        {
            "insee_code": "04043",
            "city_code": "val de chalvagne",
            "zip_code": "04320",
            "label": "val de chalvagne",
            "latitude": "43.90470905",
            "longitude": "6.765453535",
            "department_name": "alpes-de-haute-provence",
            "department_number": "04",
            "region_name": "provence-alpes-côte d'azur",
            "region_geojson_name": "Provence-Alpes-Côte d'Azur"
        },
        {
            "insee_code": "04067",
            "city_code": "curel",
            "zip_code": "04200",
            "label": "curel",
            "latitude": "44.176713274",
            "longitude": "5.6732270620000005",
            "department_name": "alpes-de-haute-provence",
            "department_number": "04",
            "region_name": "provence-alpes-côte d'azur",
            "region_geojson_name": "Provence-Alpes-Côte d'Azur"
        },
        {
            "insee_code": "04085",
            "city_code": "faucon du caire",
            "zip_code": "04250",
            "label": "faucon du caire",
            "latitude": "44.395857538",
            "longitude": "6.103779168",
            "department_name": "alpes-de-haute-provence",
            "department_number": "04",
            "region_name": "provence-alpes-côte d'azur",
            "region_geojson_name": "Provence-Alpes-Côte d'Azur"
        },
        {
            "insee_code": "04088",
            "city_code": "forcalquier",
            "zip_code": "04300",
            "label": "forcalquier",
            "latitude": "43.960406656",
            "longitude": "5.788177405",
            "department_name": "alpes-de-haute-provence",
            "department_number": "04",
            "region_name": "provence-alpes-côte d'azur",
            "region_geojson_name": "Provence-Alpes-Côte d'Azur"
        },
        {
            "insee_code": "04090",
            "city_code": "le fugeret",
            "zip_code": "04240",
            "label": "le fugeret",
            "latitude": "44.014756892",
            "longitude": "6.66533601",
            "department_name": "alpes-de-haute-provence",
            "department_number": "04",
            "region_name": "provence-alpes-côte d'azur",
            "region_geojson_name": "Provence-Alpes-Côte d'Azur"
        },
        {
            "insee_code": "04091",
            "city_code": "ganagobie",
            "zip_code": "04310",
            "label": "ganagobie",
            "latitude": "44.002652728",
            "longitude": "5.908005449",
            "department_name": "alpes-de-haute-provence",
            "department_number": "04",
            "region_name": "provence-alpes-côte d'azur",
            "region_geojson_name": "Provence-Alpes-Côte d'Azur"
        },
        {
            "insee_code": "04093",
            "city_code": "gigors",
            "zip_code": "04250",
            "label": "gigors",
            "latitude": "44.423746169",
            "longitude": "6.141119317",
            "department_name": "alpes-de-haute-provence",
            "department_number": "04",
            "region_name": "provence-alpes-côte d'azur",
            "region_geojson_name": "Provence-Alpes-Côte d'Azur"
        },
        {
            "insee_code": "04145",
            "city_code": "peipin",
            "zip_code": "04200",
            "label": "peipin",
            "latitude": "44.141686042",
            "longitude": "5.94282764",
            "department_name": "alpes-de-haute-provence",
            "department_number": "04",
            "region_name": "provence-alpes-côte d'azur",
            "region_geojson_name": "Provence-Alpes-Côte d'Azur"
        },
        {
            "insee_code": "04178",
            "city_code": "st etienne les orgues",
            "zip_code": "04230",
            "label": "st etienne les orgues",
            "latitude": "44.067309603",
            "longitude": "5.7804375",
            "department_name": "alpes-de-haute-provence",
            "department_number": "04",
            "region_name": "provence-alpes-côte d'azur",
            "region_geojson_name": "Provence-Alpes-Côte d'Azur"
        },
        {
            "insee_code": "04180",
            "city_code": "st jacques",
            "zip_code": "04330",
            "label": "st jacques",
            "latitude": "43.97662428",
            "longitude": "6.370782716",
            "department_name": "alpes-de-haute-provence",
            "department_number": "04",
            "region_name": "provence-alpes-côte d'azur",
            "region_geojson_name": "Provence-Alpes-Côte d'Azur"
        },
        {
            "insee_code": "04181",
            "city_code": "st jeannet",
            "zip_code": "04270",
            "label": "st jeannet",
            "latitude": "43.979439733",
            "longitude": "6.117855574",
            "department_name": "alpes-de-haute-provence",
            "department_number": "04",
            "region_name": "provence-alpes-côte d'azur",
            "region_geojson_name": "Provence-Alpes-Côte d'Azur"
        },
        {
            "insee_code": "04182",
            "city_code": "st julien d asse",
            "zip_code": "04270",
            "label": "st julien d asse",
            "latitude": "43.926895842",
            "longitude": "6.077554919",
            "department_name": "alpes-de-haute-provence",
            "department_number": "04",
            "region_name": "provence-alpes-côte d'azur",
            "region_geojson_name": "Provence-Alpes-Côte d'Azur"
        },
        {
            "insee_code": "04187",
            "city_code": "st lions",
            "zip_code": "04330",
            "label": "st lions",
            "latitude": "43.978568734",
            "longitude": "6.406375046",
            "department_name": "alpes-de-haute-provence",
            "department_number": "04",
            "region_name": "provence-alpes-côte d'azur",
            "region_geojson_name": "Provence-Alpes-Côte d'Azur"
        },
        {
            "insee_code": "04197",
            "city_code": "ste tulle",
            "zip_code": "04220",
            "label": "ste tulle",
            "latitude": "43.783249852",
            "longitude": "5.773048992",
            "department_name": "alpes-de-haute-provence",
            "department_number": "04",
            "region_name": "provence-alpes-côte d'azur",
            "region_geojson_name": "Provence-Alpes-Côte d'Azur"
        },
        {
            "insee_code": "04209",
            "city_code": "sisteron",
            "zip_code": "04200",
            "label": "sisteron",
            "latitude": "44.20082432",
            "longitude": "5.930490798",
            "department_name": "alpes-de-haute-provence",
            "department_number": "04",
            "region_name": "provence-alpes-côte d'azur",
            "region_geojson_name": "Provence-Alpes-Côte d'Azur"
        },
        {
            "insee_code": "04222",
            "city_code": "turriers",
            "zip_code": "04250",
            "label": "turriers",
            "latitude": "44.391860001",
            "longitude": "6.158958855",
            "department_name": "alpes-de-haute-provence",
            "department_number": "04",
            "region_name": "provence-alpes-côte d'azur",
            "region_geojson_name": "Provence-Alpes-Côte d'Azur"
        },
        {
            "insee_code": "04229",
            "city_code": "valbelle",
            "zip_code": "04200",
            "label": "valbelle",
            "latitude": "44.136846843",
            "longitude": "5.876161995",
            "department_name": "alpes-de-haute-provence",
            "department_number": "04",
            "region_name": "provence-alpes-côte d'azur",
            "region_geojson_name": "Provence-Alpes-Côte d'Azur"
        },
        {
            "insee_code": "06001",
            "city_code": "aiglun",
            "zip_code": "06910",
            "label": "aiglun",
            "latitude": "43.852732901",
            "longitude": "6.93495405",
            "department_name": "alpes-maritimes",
            "department_number": "06",
            "region_name": "provence-alpes-côte d'azur",
            "region_geojson_name": "Provence-Alpes-Côte d'Azur"
        },
        {
            "insee_code": "06031",
            "city_code": "cantaron",
            "zip_code": "06340",
            "label": "cantaron",
            "latitude": "43.770720418",
            "longitude": "7.312913862",
            "department_name": "alpes-maritimes",
            "department_number": "06",
            "region_name": "provence-alpes-côte d'azur",
            "region_geojson_name": "Provence-Alpes-Côte d'Azur"
        },
        {
            "insee_code": "06052",
            "city_code": "cuebris",
            "zip_code": "06910",
            "label": "cuebris",
            "latitude": "43.889235743",
            "longitude": "7.003770956",
            "department_name": "alpes-maritimes",
            "department_number": "06",
            "region_name": "provence-alpes-côte d'azur",
            "region_geojson_name": "Provence-Alpes-Côte d'Azur"
        },
        {
            "insee_code": "06059",
            "city_code": "eze",
            "zip_code": "06360",
            "label": "eze",
            "latitude": "43.729318298",
            "longitude": "7.360455933",
            "department_name": "alpes-maritimes",
            "department_number": "06",
            "region_name": "provence-alpes-côte d'azur",
            "region_geojson_name": "Provence-Alpes-Côte d'Azur"
        },
        {
            "insee_code": "06060",
            "city_code": "falicon",
            "zip_code": "06950",
            "label": "falicon",
            "latitude": "43.752720296",
            "longitude": "7.265007981",
            "department_name": "alpes-maritimes",
            "department_number": "06",
            "region_name": "provence-alpes-côte d'azur",
            "region_geojson_name": "Provence-Alpes-Côte d'Azur"
        },
        {
            "insee_code": "06084",
            "city_code": "mouans sartoux",
            "zip_code": "06370",
            "label": "mouans sartoux",
            "latitude": "43.618692983",
            "longitude": "6.964296685",
            "department_name": "alpes-maritimes",
            "department_number": "06",
            "region_name": "provence-alpes-côte d'azur",
            "region_geojson_name": "Provence-Alpes-Côte d'Azur"
        },
        {
            "insee_code": "06088",
            "city_code": "nice",
            "zip_code": "06300",
            "label": "nice",
            "latitude": "43.712363989",
            "longitude": "7.237937874",
            "department_name": "alpes-maritimes",
            "department_number": "06",
            "region_name": "provence-alpes-côte d'azur",
            "region_geojson_name": "Provence-Alpes-Côte d'Azur"
        },
        {
            "insee_code": "06097",
            "city_code": "pierrefeu",
            "zip_code": "06910",
            "label": "pierrefeu",
            "latitude": "43.884569419",
            "longitude": "7.070845578",
            "department_name": "alpes-maritimes",
            "department_number": "06",
            "region_name": "provence-alpes-côte d'azur",
            "region_geojson_name": "Provence-Alpes-Côte d'Azur"
        },
        {
            "insee_code": "06131",
            "city_code": "sallagriffon",
            "zip_code": "06910",
            "label": "sallagriffon",
            "latitude": "43.880756461",
            "longitude": "6.9129337920000005",
            "department_name": "alpes-maritimes",
            "department_number": "06",
            "region_name": "provence-alpes-côte d'azur",
            "region_geojson_name": "Provence-Alpes-Côte d'Azur"
        },
        {
            "insee_code": "04021",
            "city_code": "barras",
            "zip_code": "04380",
            "label": "barras",
            "latitude": "44.100626374",
            "longitude": "6.098443052",
            "department_name": "alpes-de-haute-provence",
            "department_number": "04",
            "region_name": "provence-alpes-côte d'azur",
            "region_geojson_name": "Provence-Alpes-Côte d'Azur"
        },
        {
            "insee_code": "04023",
            "city_code": "bayons",
            "zip_code": "04250",
            "label": "bayons",
            "latitude": "44.325166073",
            "longitude": "6.172891445",
            "department_name": "alpes-de-haute-provence",
            "department_number": "04",
            "region_name": "provence-alpes-côte d'azur",
            "region_geojson_name": "Provence-Alpes-Côte d'Azur"
        },
        {
            "insee_code": "04032",
            "city_code": "braux",
            "zip_code": "04240",
            "label": "braux",
            "latitude": "43.993121023",
            "longitude": "6.6990172",
            "department_name": "alpes-de-haute-provence",
            "department_number": "04",
            "region_name": "provence-alpes-côte d'azur",
            "region_geojson_name": "Provence-Alpes-Côte d'Azur"
        },
        {
            "insee_code": "04033",
            "city_code": "ubaye serre poncon",
            "zip_code": "04340",
            "label": "ubaye serre poncon",
            "latitude": "44.441498992",
            "longitude": "6.31859203",
            "department_name": "alpes-de-haute-provence",
            "department_number": "04",
            "region_name": "provence-alpes-côte d'azur",
            "region_geojson_name": "Provence-Alpes-Côte d'Azur"
        },
        {
            "insee_code": "04035",
            "city_code": "brunet",
            "zip_code": "04210",
            "label": "brunet",
            "latitude": "43.885919144",
            "longitude": "6.033181131",
            "department_name": "alpes-de-haute-provence",
            "department_number": "04",
            "region_name": "provence-alpes-côte d'azur",
            "region_geojson_name": "Provence-Alpes-Côte d'Azur"
        },
        {
            "insee_code": "04040",
            "city_code": "le castellard melan",
            "zip_code": "04380",
            "label": "le castellard melan",
            "latitude": "44.202119682",
            "longitude": "6.131282474",
            "department_name": "alpes-de-haute-provence",
            "department_number": "04",
            "region_name": "provence-alpes-côte d'azur",
            "region_geojson_name": "Provence-Alpes-Côte d'Azur"
        },
        {
            "insee_code": "04055",
            "city_code": "chaudon norante",
            "zip_code": "04330",
            "label": "chaudon norante",
            "latitude": "43.991870662",
            "longitude": "6.317152817",
            "department_name": "alpes-de-haute-provence",
            "department_number": "04",
            "region_name": "provence-alpes-côte d'azur",
            "region_geojson_name": "Provence-Alpes-Côte d'Azur"
        },
        {
            "insee_code": "04075",
            "city_code": "entrepierres",
            "zip_code": "04200",
            "label": "entrepierres",
            "latitude": "44.195957297",
            "longitude": "6.022176931",
            "department_name": "alpes-de-haute-provence",
            "department_number": "04",
            "region_name": "provence-alpes-côte d'azur",
            "region_geojson_name": "Provence-Alpes-Côte d'Azur"
        },
        {
            "insee_code": "04087",
            "city_code": "fontienne",
            "zip_code": "04230",
            "label": "fontienne",
            "latitude": "44.006155656",
            "longitude": "5.794169899",
            "department_name": "alpes-de-haute-provence",
            "department_number": "04",
            "region_name": "provence-alpes-côte d'azur",
            "region_geojson_name": "Provence-Alpes-Côte d'Azur"
        },
        {
            "insee_code": "04101",
            "city_code": "lardiers",
            "zip_code": "04230",
            "label": "lardiers",
            "latitude": "44.084634181",
            "longitude": "5.726598548",
            "department_name": "alpes-de-haute-provence",
            "department_number": "04",
            "region_name": "provence-alpes-côte d'azur",
            "region_geojson_name": "Provence-Alpes-Côte d'Azur"
        },
        {
            "insee_code": "04137",
            "city_code": "nibles",
            "zip_code": "04250",
            "label": "nibles",
            "latitude": "44.288927751",
            "longitude": "6.008602523",
            "department_name": "alpes-de-haute-provence",
            "department_number": "04",
            "region_name": "provence-alpes-côte d'azur",
            "region_geojson_name": "Provence-Alpes-Côte d'Azur"
        },
        {
            "insee_code": "04139",
            "city_code": "noyers sur jabron",
            "zip_code": "04200",
            "label": "noyers sur jabron",
            "latitude": "44.169160423",
            "longitude": "5.810131124",
            "department_name": "alpes-de-haute-provence",
            "department_number": "04",
            "region_name": "provence-alpes-côte d'azur",
            "region_geojson_name": "Provence-Alpes-Côte d'Azur"
        },
        {
            "insee_code": "04177",
            "city_code": "hautes duyes",
            "zip_code": "04380",
            "label": "hautes duyes",
            "latitude": "44.194662453",
            "longitude": "6.174168163",
            "department_name": "alpes-de-haute-provence",
            "department_number": "04",
            "region_name": "provence-alpes-côte d'azur",
            "region_geojson_name": "Provence-Alpes-Côte d'Azur"
        },
        {
            "insee_code": "04188",
            "city_code": "st maime",
            "zip_code": "04300",
            "label": "st maime",
            "latitude": "43.900936378",
            "longitude": "5.801209575",
            "department_name": "alpes-de-haute-provence",
            "department_number": "04",
            "region_name": "provence-alpes-côte d'azur",
            "region_geojson_name": "Provence-Alpes-Côte d'Azur"
        },
        {
            "insee_code": "04216",
            "city_code": "theze",
            "zip_code": "04200",
            "label": "theze",
            "latitude": "44.329566985",
            "longitude": "5.924564419",
            "department_name": "alpes-de-haute-provence",
            "department_number": "04",
            "region_name": "provence-alpes-côte d'azur",
            "region_geojson_name": "Provence-Alpes-Côte d'Azur"
        },
        {
            "insee_code": "04230",
            "city_code": "valensole",
            "zip_code": "04210",
            "label": "valensole",
            "latitude": "43.838188342",
            "longitude": "5.942121424",
            "department_name": "alpes-de-haute-provence",
            "department_number": "04",
            "region_name": "provence-alpes-côte d'azur",
            "region_geojson_name": "Provence-Alpes-Côte d'Azur"
        },
        {
            "insee_code": "04240",
            "city_code": "villars colmars",
            "zip_code": "04370",
            "label": "villars colmars",
            "latitude": "44.198029594",
            "longitude": "6.5692348460000005",
            "department_name": "alpes-de-haute-provence",
            "department_number": "04",
            "region_name": "provence-alpes-côte d'azur",
            "region_geojson_name": "Provence-Alpes-Côte d'Azur"
        },
        {
            "insee_code": "04244",
            "city_code": "volonne",
            "zip_code": "04290",
            "label": "volonne",
            "latitude": "44.123767029",
            "longitude": "6.034302161",
            "department_name": "alpes-de-haute-provence",
            "department_number": "04",
            "region_name": "provence-alpes-côte d'azur",
            "region_geojson_name": "Provence-Alpes-Côte d'Azur"
        },
        {
            "insee_code": "06014",
            "city_code": "bendejun",
            "zip_code": "06390",
            "label": "bendejun",
            "latitude": "43.830449744",
            "longitude": "7.284290916",
            "department_name": "alpes-maritimes",
            "department_number": "06",
            "region_name": "provence-alpes-côte d'azur",
            "region_geojson_name": "Provence-Alpes-Côte d'Azur"
        },
        {
            "insee_code": "06081",
            "city_code": "le mas",
            "zip_code": "06910",
            "label": "le mas",
            "latitude": "43.83679644",
            "longitude": "6.858400301",
            "department_name": "alpes-maritimes",
            "department_number": "06",
            "region_name": "provence-alpes-côte d'azur",
            "region_geojson_name": "Provence-Alpes-Côte d'Azur"
        },
        {
            "insee_code": "06086",
            "city_code": "moulinet",
            "zip_code": "06380",
            "label": "moulinet",
            "latitude": "43.953755834",
            "longitude": "7.413778164",
            "department_name": "alpes-maritimes",
            "department_number": "06",
            "region_name": "provence-alpes-côte d'azur",
            "region_geojson_name": "Provence-Alpes-Côte d'Azur"
        },
        {
            "insee_code": "06105",
            "city_code": "roquefort les pins",
            "zip_code": "06330",
            "label": "roquefort les pins",
            "latitude": "43.67427715",
            "longitude": "7.052968624",
            "department_name": "alpes-maritimes",
            "department_number": "06",
            "region_name": "provence-alpes-côte d'azur",
            "region_geojson_name": "Provence-Alpes-Côte d'Azur"
        },
        {
            "insee_code": "06150",
            "city_code": "la turbie",
            "zip_code": "06320",
            "label": "la turbie",
            "latitude": "43.745399443",
            "longitude": "7.397714435",
            "department_name": "alpes-maritimes",
            "department_number": "06",
            "region_name": "provence-alpes-côte d'azur",
            "region_geojson_name": "Provence-Alpes-Côte d'Azur"
        },
        {
            "insee_code": "04006",
            "city_code": "allos",
            "zip_code": "04260",
            "label": "allos",
            "latitude": "44.26188021",
            "longitude": "6.626633132",
            "department_name": "alpes-de-haute-provence",
            "department_number": "04",
            "region_name": "provence-alpes-côte d'azur",
            "region_geojson_name": "Provence-Alpes-Côte d'Azur"
        },
        {
            "insee_code": "04008",
            "city_code": "annot",
            "zip_code": "04240",
            "label": "annot",
            "latitude": "43.962040954",
            "longitude": "6.663525802",
            "department_name": "alpes-de-haute-provence",
            "department_number": "04",
            "region_name": "provence-alpes-côte d'azur",
            "region_geojson_name": "Provence-Alpes-Côte d'Azur"
        },
        {
            "insee_code": "04013",
            "city_code": "aubignosc",
            "zip_code": "04200",
            "label": "aubignosc",
            "latitude": "44.118653848",
            "longitude": "5.958246498",
            "department_name": "alpes-de-haute-provence",
            "department_number": "04",
            "region_name": "provence-alpes-côte d'azur",
            "region_geojson_name": "Provence-Alpes-Côte d'Azur"
        },
        {
            "insee_code": "04023",
            "city_code": "bayons",
            "zip_code": "04250",
            "label": "bayons",
            "latitude": "44.325166073",
            "longitude": "6.172891445",
            "department_name": "alpes-de-haute-provence",
            "department_number": "04",
            "region_name": "provence-alpes-côte d'azur",
            "region_geojson_name": "Provence-Alpes-Côte d'Azur"
        },
        {
            "insee_code": "04026",
            "city_code": "bellaffaire",
            "zip_code": "04250",
            "label": "bellaffaire",
            "latitude": "44.404191941",
            "longitude": "6.194438419",
            "department_name": "alpes-de-haute-provence",
            "department_number": "04",
            "region_name": "provence-alpes-côte d'azur",
            "region_geojson_name": "Provence-Alpes-Côte d'Azur"
        },
        {
            "insee_code": "04027",
            "city_code": "bevons",
            "zip_code": "04200",
            "label": "bevons",
            "latitude": "44.177651942",
            "longitude": "5.879434005",
            "department_name": "alpes-de-haute-provence",
            "department_number": "04",
            "region_name": "provence-alpes-côte d'azur",
            "region_geojson_name": "Provence-Alpes-Côte d'Azur"
        },
        {
            "insee_code": "04037",
            "city_code": "le caire",
            "zip_code": "04250",
            "label": "le caire",
            "latitude": "44.37433891",
            "longitude": "6.06896198",
            "department_name": "alpes-de-haute-provence",
            "department_number": "04",
            "region_name": "provence-alpes-côte d'azur",
            "region_geojson_name": "Provence-Alpes-Côte d'Azur"
        },
        {
            "insee_code": "04040",
            "city_code": "le castellard melan",
            "zip_code": "04380",
            "label": "le castellard melan",
            "latitude": "44.202119682",
            "longitude": "6.131282474",
            "department_name": "alpes-de-haute-provence",
            "department_number": "04",
            "region_name": "provence-alpes-côte d'azur",
            "region_geojson_name": "Provence-Alpes-Côte d'Azur"
        },
        {
            "insee_code": "04053",
            "city_code": "chateauneuf val st donat",
            "zip_code": "04200",
            "label": "chateauneuf val st donat",
            "latitude": "44.095475506",
            "longitude": "5.931054412",
            "department_name": "alpes-de-haute-provence",
            "department_number": "04",
            "region_name": "provence-alpes-côte d'azur",
            "region_geojson_name": "Provence-Alpes-Côte d'Azur"
        },
        {
            "insee_code": "04054",
            "city_code": "chateauredon",
            "zip_code": "04270",
            "label": "chateauredon",
            "latitude": "44.026463243",
            "longitude": "6.224593363",
            "department_name": "alpes-de-haute-provence",
            "department_number": "04",
            "region_name": "provence-alpes-côte d'azur",
            "region_geojson_name": "Provence-Alpes-Côte d'Azur"
        },
        {
            "insee_code": "04059",
            "city_code": "clumanc",
            "zip_code": "04330",
            "label": "clumanc",
            "latitude": "44.022015551",
            "longitude": "6.377560932",
            "department_name": "alpes-de-haute-provence",
            "department_number": "04",
            "region_name": "provence-alpes-côte d'azur",
            "region_geojson_name": "Provence-Alpes-Côte d'Azur"
        },
        {
            "insee_code": "04061",
            "city_code": "colmars",
            "zip_code": "04370",
            "label": "colmars les alpes",
            "latitude": "44.172437764",
            "longitude": "6.66168455",
            "department_name": "alpes-de-haute-provence",
            "department_number": "04",
            "region_name": "provence-alpes-côte d'azur",
            "region_geojson_name": "Provence-Alpes-Côte d'Azur"
        },
        {
            "insee_code": "04065",
            "city_code": "cruis",
            "zip_code": "04230",
            "label": "cruis",
            "latitude": "44.082753583",
            "longitude": "5.838310996",
            "department_name": "alpes-de-haute-provence",
            "department_number": "04",
            "region_name": "provence-alpes-côte d'azur",
            "region_geojson_name": "Provence-Alpes-Côte d'Azur"
        },
        {
            "insee_code": "04068",
            "city_code": "dauphin",
            "zip_code": "04300",
            "label": "dauphin",
            "latitude": "43.893280114",
            "longitude": "5.77638145",
            "department_name": "alpes-de-haute-provence",
            "department_number": "04",
            "region_name": "provence-alpes-côte d'azur",
            "region_geojson_name": "Provence-Alpes-Côte d'Azur"
        },
        {
            "insee_code": "04076",
            "city_code": "entrevaux",
            "zip_code": "04320",
            "label": "entrevaux",
            "latitude": "43.950230255",
            "longitude": "6.801961931",
            "department_name": "alpes-de-haute-provence",
            "department_number": "04",
            "region_name": "provence-alpes-côte d'azur",
            "region_geojson_name": "Provence-Alpes-Côte d'Azur"
        },
        {
            "insee_code": "04123",
            "city_code": "mison",
            "zip_code": "04200",
            "label": "mison",
            "latitude": "44.262816876",
            "longitude": "5.865334108",
            "department_name": "alpes-de-haute-provence",
            "department_number": "04",
            "region_name": "provence-alpes-côte d'azur",
            "region_geojson_name": "Provence-Alpes-Côte d'Azur"
        },
        {
            "insee_code": "04130",
            "city_code": "montlaux",
            "zip_code": "04230",
            "label": "montlaux",
            "latitude": "44.040872354",
            "longitude": "5.85031387",
            "department_name": "alpes-de-haute-provence",
            "department_number": "04",
            "region_name": "provence-alpes-côte d'azur",
            "region_geojson_name": "Provence-Alpes-Côte d'Azur"
        },
        {
            "insee_code": "04135",
            "city_code": "moustiers ste marie",
            "zip_code": "04360",
            "label": "moustiers ste marie",
            "latitude": "43.838178021",
            "longitude": "6.228174277",
            "department_name": "alpes-de-haute-provence",
            "department_number": "04",
            "region_name": "provence-alpes-côte d'azur",
            "region_geojson_name": "Provence-Alpes-Côte d'Azur"
        },
        {
            "insee_code": "04149",
            "city_code": "peyruis",
            "zip_code": "04310",
            "label": "peyruis",
            "latitude": "44.035747847",
            "longitude": "5.90499936",
            "department_name": "alpes-de-haute-provence",
            "department_number": "04",
            "region_name": "provence-alpes-côte d'azur",
            "region_geojson_name": "Provence-Alpes-Côte d'Azur"
        },
        {
            "insee_code": "04151",
            "city_code": "pierrerue",
            "zip_code": "04300",
            "label": "pierrerue",
            "latitude": "43.962462841",
            "longitude": "5.835882579",
            "department_name": "alpes-de-haute-provence",
            "department_number": "04",
            "region_name": "provence-alpes-côte d'azur",
            "region_geojson_name": "Provence-Alpes-Côte d'Azur"
        },
        {
            "insee_code": "04161",
            "city_code": "meolans revel",
            "zip_code": "04340",
            "label": "meolans revel",
            "latitude": "44.371302704",
            "longitude": "6.498137082",
            "department_name": "alpes-de-haute-provence",
            "department_number": "04",
            "region_name": "provence-alpes-côte d'azur",
            "region_geojson_name": "Provence-Alpes-Côte d'Azur"
        },
        {
            "insee_code": "04161",
            "city_code": "meolans revel",
            "zip_code": "04340",
            "label": "meolans revel",
            "latitude": "44.371302704",
            "longitude": "6.498137082",
            "department_name": "alpes-de-haute-provence",
            "department_number": "04",
            "region_name": "provence-alpes-côte d'azur",
            "region_geojson_name": "Provence-Alpes-Côte d'Azur"
        },
        {
            "insee_code": "04161",
            "city_code": "meolans revel",
            "zip_code": "04340",
            "label": "meolans revel",
            "latitude": "44.371302704",
            "longitude": "6.498137082",
            "department_name": "alpes-de-haute-provence",
            "department_number": "04",
            "region_name": "provence-alpes-côte d'azur",
            "region_geojson_name": "Provence-Alpes-Côte d'Azur"
        },
        {
            "insee_code": "04204",
            "city_code": "senez",
            "zip_code": "04270",
            "label": "senez",
            "latitude": "43.922554623",
            "longitude": "6.368099674",
            "department_name": "alpes-de-haute-provence",
            "department_number": "04",
            "region_name": "provence-alpes-côte d'azur",
            "region_geojson_name": "Provence-Alpes-Côte d'Azur"
        },
        {
            "insee_code": "04217",
            "city_code": "thoard",
            "zip_code": "04380",
            "label": "thoard",
            "latitude": "44.147071311",
            "longitude": "6.124111742",
            "department_name": "alpes-de-haute-provence",
            "department_number": "04",
            "region_name": "provence-alpes-côte d'azur",
            "region_geojson_name": "Provence-Alpes-Côte d'Azur"
        },
        {
            "insee_code": "04224",
            "city_code": "ubraye",
            "zip_code": "04240",
            "label": "ubraye",
            "latitude": "43.90729568",
            "longitude": "6.686851013",
            "department_name": "alpes-de-haute-provence",
            "department_number": "04",
            "region_name": "provence-alpes-côte d'azur",
            "region_geojson_name": "Provence-Alpes-Côte d'Azur"
        },
        {
            "insee_code": "04228",
            "city_code": "valavoire",
            "zip_code": "04250",
            "label": "valavoire",
            "latitude": "44.279696903",
            "longitude": "6.075851213",
            "department_name": "alpes-de-haute-provence",
            "department_number": "04",
            "region_name": "provence-alpes-côte d'azur",
            "region_geojson_name": "Provence-Alpes-Côte d'Azur"
        },
        {
            "insee_code": "06002",
            "city_code": "amirat",
            "zip_code": "06910",
            "label": "amirat",
            "latitude": "43.896713676",
            "longitude": "6.812953852",
            "department_name": "alpes-maritimes",
            "department_number": "06",
            "region_name": "provence-alpes-côte d'azur",
            "region_geojson_name": "Provence-Alpes-Côte d'Azur"
        },
        {
            "insee_code": "06039",
            "city_code": "chateauneuf villevieille",
            "zip_code": "06390",
            "label": "chateauneuf villevieille",
            "latitude": "43.798767478",
            "longitude": "7.29491499",
            "department_name": "alpes-maritimes",
            "department_number": "06",
            "region_name": "provence-alpes-côte d'azur",
            "region_geojson_name": "Provence-Alpes-Côte d'Azur"
        },
        {
            "insee_code": "06043",
            "city_code": "coaraze",
            "zip_code": "06390",
            "label": "coaraze",
            "latitude": "43.866233195",
            "longitude": "7.299283018",
            "department_name": "alpes-maritimes",
            "department_number": "06",
            "region_name": "provence-alpes-côte d'azur",
            "region_geojson_name": "Provence-Alpes-Côte d'Azur"
        },
        {
            "insee_code": "06135",
            "city_code": "sigale",
            "zip_code": "06910",
            "label": "sigale",
            "latitude": "43.875573985",
            "longitude": "6.966258326",
            "department_name": "alpes-maritimes",
            "department_number": "06",
            "region_name": "provence-alpes-côte d'azur",
            "region_geojson_name": "Provence-Alpes-Côte d'Azur"
        },
        {
            "insee_code": "05092",
            "city_code": "neffes",
            "zip_code": "05000",
            "label": "neffes",
            "latitude": "44.496092067",
            "longitude": "6.025969136",
            "department_name": "hautes-alpes",
            "department_number": "05",
            "region_name": "provence-alpes-côte d'azur",
            "region_geojson_name": "Provence-Alpes-Côte d'Azur"
        },
        {
            "insee_code": "06004",
            "city_code": "antibes",
            "zip_code": "06160",
            "label": "antibes",
            "latitude": "43.587761948",
            "longitude": "7.105220285",
            "department_name": "alpes-maritimes",
            "department_number": "06",
            "region_name": "provence-alpes-côte d'azur",
            "region_geojson_name": "Provence-Alpes-Côte d'Azur"
        },
        {
            "insee_code": "05018",
            "city_code": "la batie vieille",
            "zip_code": "05000",
            "label": "la batie vieille",
            "latitude": "44.5550657",
            "longitude": "6.15611446",
            "department_name": "hautes-alpes",
            "department_number": "05",
            "region_name": "provence-alpes-côte d'azur",
            "region_geojson_name": "Provence-Alpes-Côte d'Azur"
        },
        {
            "insee_code": "05124",
            "city_code": "la rochette",
            "zip_code": "05000",
            "label": "la rochette",
            "latitude": "44.593102898",
            "longitude": "6.149168756",
            "department_name": "hautes-alpes",
            "department_number": "05",
            "region_name": "provence-alpes-côte d'azur",
            "region_geojson_name": "Provence-Alpes-Côte d'Azur"
        },
        {
            "insee_code": "06069",
            "city_code": "grasse",
            "zip_code": "06130",
            "label": "grasse",
            "latitude": "43.655947795",
            "longitude": "6.931948216",
            "department_name": "alpes-maritimes",
            "department_number": "06",
            "region_name": "provence-alpes-côte d'azur",
            "region_geojson_name": "Provence-Alpes-Côte d'Azur"
        },
        {
            "insee_code": "06157",
            "city_code": "vence",
            "zip_code": "06140",
            "label": "vence",
            "latitude": "43.738599753",
            "longitude": "7.10175145",
            "department_name": "alpes-maritimes",
            "department_number": "06",
            "region_name": "provence-alpes-côte d'azur",
            "region_geojson_name": "Provence-Alpes-Côte d'Azur"
        },
        {
            "insee_code": "05061",
            "city_code": "gap",
            "zip_code": "05000",
            "label": "gap",
            "latitude": "44.580236774",
            "longitude": "6.064846144",
            "department_name": "hautes-alpes",
            "department_number": "05",
            "region_name": "provence-alpes-côte d'azur",
            "region_geojson_name": "Provence-Alpes-Côte d'Azur"
        },
        {
            "insee_code": "05061",
            "city_code": "gap",
            "zip_code": "05000",
            "label": "gap",
            "latitude": "44.580236774",
            "longitude": "6.064846144",
            "department_name": "hautes-alpes",
            "department_number": "05",
            "region_name": "provence-alpes-côte d'azur",
            "region_geojson_name": "Provence-Alpes-Côte d'Azur"
        },
        {
            "insee_code": "06029",
            "city_code": "cannes",
            "zip_code": "06150",
            "label": "cannes",
            "latitude": "43.552044875",
            "longitude": "7.004779118",
            "department_name": "alpes-maritimes",
            "department_number": "06",
            "region_name": "provence-alpes-côte d'azur",
            "region_geojson_name": "Provence-Alpes-Côte d'Azur"
        },
        {
            "insee_code": "06030",
            "city_code": "le cannet",
            "zip_code": "06110",
            "label": "le cannet",
            "latitude": "43.572966724",
            "longitude": "7.00509904",
            "department_name": "alpes-maritimes",
            "department_number": "06",
            "region_name": "provence-alpes-côte d'azur",
            "region_geojson_name": "Provence-Alpes-Côte d'Azur"
        },
        {
            "insee_code": "06030",
            "city_code": "le cannet",
            "zip_code": "06110",
            "label": "le cannet",
            "latitude": "43.572966724",
            "longitude": "7.00509904",
            "department_name": "alpes-maritimes",
            "department_number": "06",
            "region_name": "provence-alpes-côte d'azur",
            "region_geojson_name": "Provence-Alpes-Côte d'Azur"
        },
        {
            "insee_code": "06104",
            "city_code": "roquebrune cap martin",
            "zip_code": "06190",
            "label": "roquebrune cap martin",
            "latitude": "43.764014213",
            "longitude": "7.458465918",
            "department_name": "alpes-maritimes",
            "department_number": "06",
            "region_name": "provence-alpes-côte d'azur",
            "region_geojson_name": "Provence-Alpes-Côte d'Azur"
        },
        {
            "insee_code": "06104",
            "city_code": "roquebrune cap martin",
            "zip_code": "06190",
            "label": "roquebrune cap martin",
            "latitude": "43.764014213",
            "longitude": "7.458465918",
            "department_name": "alpes-maritimes",
            "department_number": "06",
            "region_name": "provence-alpes-côte d'azur",
            "region_geojson_name": "Provence-Alpes-Côte d'Azur"
        },
        {
            "insee_code": "06148",
            "city_code": "tourrettes sur loup",
            "zip_code": "06140",
            "label": "tourrettes sur loup",
            "latitude": "43.717255775",
            "longitude": "7.039136741",
            "department_name": "alpes-maritimes",
            "department_number": "06",
            "region_name": "provence-alpes-côte d'azur",
            "region_geojson_name": "Provence-Alpes-Côte d'Azur"
        },
        {
            "insee_code": "05037",
            "city_code": "chateauvieux",
            "zip_code": "05000",
            "label": "chateauvieux",
            "latitude": "44.484012446",
            "longitude": "6.051588244",
            "department_name": "hautes-alpes",
            "department_number": "05",
            "region_name": "provence-alpes-côte d'azur",
            "region_geojson_name": "Provence-Alpes-Côte d'Azur"
        },
        {
            "insee_code": "05113",
            "city_code": "rambaud",
            "zip_code": "05000",
            "label": "rambaud",
            "latitude": "44.546852116",
            "longitude": "6.131984678",
            "department_name": "hautes-alpes",
            "department_number": "05",
            "region_name": "provence-alpes-côte d'azur",
            "region_geojson_name": "Provence-Alpes-Côte d'Azur"
        },
        {
            "insee_code": "06050",
            "city_code": "coursegoules",
            "zip_code": "06140",
            "label": "coursegoules",
            "latitude": "43.791274853",
            "longitude": "7.035702338",
            "department_name": "alpes-maritimes",
            "department_number": "06",
            "region_name": "provence-alpes-côte d'azur",
            "region_geojson_name": "Provence-Alpes-Côte d'Azur"
        },
        {
            "insee_code": "06088",
            "city_code": "nice",
            "zip_code": "06100",
            "label": "nice",
            "latitude": "43.712363989",
            "longitude": "7.237937874",
            "department_name": "alpes-maritimes",
            "department_number": "06",
            "region_name": "provence-alpes-côte d'azur",
            "region_geojson_name": "Provence-Alpes-Côte d'Azur"
        },
        {
            "insee_code": "05059",
            "city_code": "la freissinouse",
            "zip_code": "05000",
            "label": "la freissinouse",
            "latitude": "44.535312908",
            "longitude": "6.008660299",
            "department_name": "hautes-alpes",
            "department_number": "05",
            "region_name": "provence-alpes-côte d'azur",
            "region_geojson_name": "Provence-Alpes-Côte d'Azur"
        },
        {
            "insee_code": "05100",
            "city_code": "pelleautier",
            "zip_code": "05000",
            "label": "pelleautier",
            "latitude": "44.510217516",
            "longitude": "5.999416634",
            "department_name": "hautes-alpes",
            "department_number": "05",
            "region_name": "provence-alpes-côte d'azur",
            "region_geojson_name": "Provence-Alpes-Côte d'Azur"
        },
        {
            "insee_code": "06004",
            "city_code": "antibes",
            "zip_code": "06160",
            "label": "antibes",
            "latitude": "43.587761948",
            "longitude": "7.105220285",
            "department_name": "alpes-maritimes",
            "department_number": "06",
            "region_name": "provence-alpes-côte d'azur",
            "region_geojson_name": "Provence-Alpes-Côte d'Azur"
        },
        {
            "insee_code": "06069",
            "city_code": "grasse",
            "zip_code": "06130",
            "label": "grasse",
            "latitude": "43.655947795",
            "longitude": "6.931948216",
            "department_name": "alpes-maritimes",
            "department_number": "06",
            "region_name": "provence-alpes-côte d'azur",
            "region_geojson_name": "Provence-Alpes-Côte d'Azur"
        },
        {
            "insee_code": "06069",
            "city_code": "grasse",
            "zip_code": "06130",
            "label": "grasse",
            "latitude": "43.655947795",
            "longitude": "6.931948216",
            "department_name": "alpes-maritimes",
            "department_number": "06",
            "region_name": "provence-alpes-côte d'azur",
            "region_geojson_name": "Provence-Alpes-Côte d'Azur"
        },
        {
            "insee_code": "04004",
            "city_code": "allemagne en provence",
            "zip_code": "04500",
            "label": "allemagne en provence",
            "latitude": "43.78872288",
            "longitude": "6.030340492",
            "department_name": "alpes-de-haute-provence",
            "department_number": "04",
            "region_name": "provence-alpes-côte d'azur",
            "region_geojson_name": "Provence-Alpes-Côte d'Azur"
        },
        {
            "insee_code": "04018",
            "city_code": "banon",
            "zip_code": "04150",
            "label": "banon",
            "latitude": "44.026971873",
            "longitude": "5.649836991",
            "department_name": "alpes-de-haute-provence",
            "department_number": "04",
            "region_name": "provence-alpes-côte d'azur",
            "region_geojson_name": "Provence-Alpes-Côte d'Azur"
        },
        {
            "insee_code": "04039",
            "city_code": "castellane",
            "zip_code": "04120",
            "label": "castellane",
            "latitude": "43.844877027",
            "longitude": "6.490135474",
            "department_name": "alpes-de-haute-provence",
            "department_number": "04",
            "region_name": "provence-alpes-côte d'azur",
            "region_geojson_name": "Provence-Alpes-Côte d'Azur"
        },
        {
            "insee_code": "04039",
            "city_code": "castellane",
            "zip_code": "04120",
            "label": "castellane",
            "latitude": "43.844877027",
            "longitude": "6.490135474",
            "department_name": "alpes-de-haute-provence",
            "department_number": "04",
            "region_name": "provence-alpes-côte d'azur",
            "region_geojson_name": "Provence-Alpes-Côte d'Azur"
        },
        {
            "insee_code": "04062",
            "city_code": "la condamine chatelard",
            "zip_code": "04530",
            "label": "la condamine chatelard",
            "latitude": "44.462514712",
            "longitude": "6.696740237",
            "department_name": "alpes-de-haute-provence",
            "department_number": "04",
            "region_name": "provence-alpes-côte d'azur",
            "region_geojson_name": "Provence-Alpes-Côte d'Azur"
        },
        {
            "insee_code": "04079",
            "city_code": "l escale",
            "zip_code": "04160",
            "label": "l escale",
            "latitude": "44.081555126",
            "longitude": "6.034690847",
            "department_name": "alpes-de-haute-provence",
            "department_number": "04",
            "region_name": "provence-alpes-côte d'azur",
            "region_geojson_name": "Provence-Alpes-Côte d'Azur"
        },
        {
            "insee_code": "04099",
            "city_code": "lambruisse",
            "zip_code": "04170",
            "label": "lambruisse",
            "latitude": "44.044891154",
            "longitude": "6.445578878",
            "department_name": "alpes-de-haute-provence",
            "department_number": "04",
            "region_name": "provence-alpes-côte d'azur",
            "region_geojson_name": "Provence-Alpes-Côte d'Azur"
        },
        {
            "insee_code": "04110",
            "city_code": "mallemoisson",
            "zip_code": "04510",
            "label": "mallemoisson",
            "latitude": "44.041625328",
            "longitude": "6.118316981",
            "department_name": "alpes-de-haute-provence",
            "department_number": "04",
            "region_name": "provence-alpes-côte d'azur",
            "region_geojson_name": "Provence-Alpes-Côte d'Azur"
        },
        {
            "insee_code": "04124",
            "city_code": "montagnac montpezat",
            "zip_code": "04500",
            "label": "montagnac montpezat",
            "latitude": "43.766551128",
            "longitude": "6.094529059",
            "department_name": "alpes-de-haute-provence",
            "department_number": "04",
            "region_name": "provence-alpes-côte d'azur",
            "region_geojson_name": "Provence-Alpes-Côte d'Azur"
        },
        {
            "insee_code": "04136",
            "city_code": "la mure argens",
            "zip_code": "04170",
            "label": "la mure argens",
            "latitude": "44.016829213",
            "longitude": "6.53211105",
            "department_name": "alpes-de-haute-provence",
            "department_number": "04",
            "region_name": "provence-alpes-côte d'azur",
            "region_geojson_name": "Provence-Alpes-Côte d'Azur"
        },
        {
            "insee_code": "04160",
            "city_code": "reillanne",
            "zip_code": "04110",
            "label": "reillanne",
            "latitude": "43.88620694",
            "longitude": "5.659303427",
            "department_name": "alpes-de-haute-provence",
            "department_number": "04",
            "region_name": "provence-alpes-côte d'azur",
            "region_geojson_name": "Provence-Alpes-Côte d'Azur"
        },
        {
            "insee_code": "04175",
            "city_code": "ste croix a lauze",
            "zip_code": "04110",
            "label": "ste croix a lauze",
            "latitude": "43.904162192",
            "longitude": "5.616018077",
            "department_name": "alpes-de-haute-provence",
            "department_number": "04",
            "region_name": "provence-alpes-côte d'azur",
            "region_geojson_name": "Provence-Alpes-Côte d'Azur"
        },
        {
            "insee_code": "04191",
            "city_code": "st martin les seyne",
            "zip_code": "04140",
            "label": "st martin les seyne",
            "latitude": "44.38274115",
            "longitude": "6.256089881",
            "department_name": "alpes-de-haute-provence",
            "department_number": "04",
            "region_name": "provence-alpes-côte d'azur",
            "region_geojson_name": "Provence-Alpes-Côte d'Azur"
        },
        {
            "insee_code": "04205",
            "city_code": "seyne",
            "zip_code": "04140",
            "label": "seyne les alpes",
            "latitude": "44.339132202",
            "longitude": "6.384349443",
            "department_name": "alpes-de-haute-provence",
            "department_number": "04",
            "region_name": "provence-alpes-côte d'azur",
            "region_geojson_name": "Provence-Alpes-Côte d'Azur"
        },
        {
            "insee_code": "04208",
            "city_code": "simiane la rotonde",
            "zip_code": "04150",
            "label": "simiane la rotonde",
            "latitude": "43.983812399",
            "longitude": "5.562440077",
            "department_name": "alpes-de-haute-provence",
            "department_number": "04",
            "region_name": "provence-alpes-côte d'azur",
            "region_geojson_name": "Provence-Alpes-Côte d'Azur"
        },
        {
            "insee_code": "04219",
            "city_code": "thorame haute",
            "zip_code": "04170",
            "label": "thorame haute",
            "latitude": "44.085874335",
            "longitude": "6.600976874",
            "department_name": "alpes-de-haute-provence",
            "department_number": "04",
            "region_name": "provence-alpes-côte d'azur",
            "region_geojson_name": "Provence-Alpes-Côte d'Azur"
        },
        {
            "insee_code": "04001",
            "city_code": "aiglun",
            "zip_code": "04510",
            "label": "aiglun",
            "latitude": "44.063525614",
            "longitude": "6.138562636",
            "department_name": "alpes-de-haute-provence",
            "department_number": "04",
            "region_name": "provence-alpes-côte d'azur",
            "region_geojson_name": "Provence-Alpes-Côte d'Azur"
        },
        {
            "insee_code": "04005",
            "city_code": "allons",
            "zip_code": "04170",
            "label": "allons",
            "latitude": "43.979944656",
            "longitude": "6.590007837",
            "department_name": "alpes-de-haute-provence",
            "department_number": "04",
            "region_name": "provence-alpes-côte d'azur",
            "region_geojson_name": "Provence-Alpes-Côte d'Azur"
        },
        {
            "insee_code": "04039",
            "city_code": "castellane",
            "zip_code": "04120",
            "label": "castellane",
            "latitude": "43.844877027",
            "longitude": "6.490135474",
            "department_name": "alpes-de-haute-provence",
            "department_number": "04",
            "region_name": "provence-alpes-côte d'azur",
            "region_geojson_name": "Provence-Alpes-Côte d'Azur"
        },
        {
            "insee_code": "04046",
            "city_code": "le chaffaut st jurson",
            "zip_code": "04510",
            "label": "le chaffaut st jurson",
            "latitude": "44.023005032",
            "longitude": "6.141059648",
            "department_name": "alpes-de-haute-provence",
            "department_number": "04",
            "region_name": "provence-alpes-côte d'azur",
            "region_geojson_name": "Provence-Alpes-Côte d'Azur"
        },
        {
            "insee_code": "04112",
            "city_code": "manosque",
            "zip_code": "04100",
            "label": "manosque",
            "latitude": "43.835211125",
            "longitude": "5.791029867",
            "department_name": "alpes-de-haute-provence",
            "department_number": "04",
            "region_name": "provence-alpes-côte d'azur",
            "region_geojson_name": "Provence-Alpes-Côte d'Azur"
        },
        {
            "insee_code": "04122",
            "city_code": "mirabeau",
            "zip_code": "04510",
            "label": "mirabeau",
            "latitude": "44.056632875",
            "longitude": "6.080498968",
            "department_name": "alpes-de-haute-provence",
            "department_number": "04",
            "region_name": "provence-alpes-côte d'azur",
            "region_geojson_name": "Provence-Alpes-Côte d'Azur"
        },
        {
            "insee_code": "04129",
            "city_code": "montjustin",
            "zip_code": "04110",
            "label": "montjustin",
            "latitude": "43.845410311",
            "longitude": "5.649476165",
            "department_name": "alpes-de-haute-provence",
            "department_number": "04",
            "region_name": "provence-alpes-côte d'azur",
            "region_geojson_name": "Provence-Alpes-Côte d'Azur"
        },
        {
            "insee_code": "04132",
            "city_code": "montsalier",
            "zip_code": "04150",
            "label": "montsalier",
            "latitude": "44.030024944",
            "longitude": "5.595247296",
            "department_name": "alpes-de-haute-provence",
            "department_number": "04",
            "region_name": "provence-alpes-côte d'azur",
            "region_geojson_name": "Provence-Alpes-Côte d'Azur"
        },
        {
            "insee_code": "04136",
            "city_code": "la mure argens",
            "zip_code": "04170",
            "label": "la mure argens",
            "latitude": "44.016829213",
            "longitude": "6.53211105",
            "department_name": "alpes-de-haute-provence",
            "department_number": "04",
            "region_name": "provence-alpes-côte d'azur",
            "region_geojson_name": "Provence-Alpes-Côte d'Azur"
        },
        {
            "insee_code": "04142",
            "city_code": "oppedette",
            "zip_code": "04110",
            "label": "oppedette",
            "latitude": "43.931181939",
            "longitude": "5.592598631",
            "department_name": "alpes-de-haute-provence",
            "department_number": "04",
            "region_name": "provence-alpes-côte d'azur",
            "region_geojson_name": "Provence-Alpes-Côte d'Azur"
        },
        {
            "insee_code": "04158",
            "city_code": "quinson",
            "zip_code": "04500",
            "label": "quinson",
            "latitude": "43.708130947",
            "longitude": "6.022570063",
            "department_name": "alpes-de-haute-provence",
            "department_number": "04",
            "region_name": "provence-alpes-côte d'azur",
            "region_geojson_name": "Provence-Alpes-Côte d'Azur"
        },
        {
            "insee_code": "04159",
            "city_code": "redortiers",
            "zip_code": "04150",
            "label": "redortiers",
            "latitude": "44.09782088",
            "longitude": "5.614304495",
            "department_name": "alpes-de-haute-provence",
            "department_number": "04",
            "region_name": "provence-alpes-côte d'azur",
            "region_geojson_name": "Provence-Alpes-Côte d'Azur"
        },
        {
            "insee_code": "04166",
            "city_code": "riez",
            "zip_code": "04500",
            "label": "riez",
            "latitude": "43.828104868",
            "longitude": "6.082981449",
            "department_name": "alpes-de-haute-provence",
            "department_number": "04",
            "region_name": "provence-alpes-côte d'azur",
            "region_geojson_name": "Provence-Alpes-Côte d'Azur"
        },
        {
            "insee_code": "04186",
            "city_code": "st laurent du verdon",
            "zip_code": "04500",
            "label": "st laurent du verdon",
            "latitude": "43.72133856",
            "longitude": "6.068743021",
            "department_name": "alpes-de-haute-provence",
            "department_number": "04",
            "region_name": "provence-alpes-côte d'azur",
            "region_geojson_name": "Provence-Alpes-Côte d'Azur"
        },
        {
            "insee_code": "04208",
            "city_code": "simiane la rotonde",
            "zip_code": "04150",
            "label": "simiane la rotonde",
            "latitude": "43.983812399",
            "longitude": "5.562440077",
            "department_name": "alpes-de-haute-provence",
            "department_number": "04",
            "region_name": "provence-alpes-côte d'azur",
            "region_geojson_name": "Provence-Alpes-Côte d'Azur"
        },
        {
            "insee_code": "04245",
            "city_code": "volx",
            "zip_code": "04130",
            "label": "volx",
            "latitude": "43.871093244",
            "longitude": "5.831007048",
            "department_name": "alpes-de-haute-provence",
            "department_number": "04",
            "region_name": "provence-alpes-côte d'azur",
            "region_geojson_name": "Provence-Alpes-Côte d'Azur"
        },
        {
            "insee_code": "04007",
            "city_code": "angles",
            "zip_code": "04170",
            "label": "angles",
            "latitude": "43.944118651",
            "longitude": "6.552080036",
            "department_name": "alpes-de-haute-provence",
            "department_number": "04",
            "region_name": "provence-alpes-côte d'azur",
            "region_geojson_name": "Provence-Alpes-Côte d'Azur"
        },
        {
            "insee_code": "04039",
            "city_code": "castellane",
            "zip_code": "04120",
            "label": "castellane",
            "latitude": "43.844877027",
            "longitude": "6.490135474",
            "department_name": "alpes-de-haute-provence",
            "department_number": "04",
            "region_name": "provence-alpes-côte d'azur",
            "region_geojson_name": "Provence-Alpes-Côte d'Azur"
        },
        {
            "insee_code": "04095",
            "city_code": "l hospitalet",
            "zip_code": "04150",
            "label": "l hospitalet",
            "latitude": "44.108367467",
            "longitude": "5.706893093",
            "department_name": "alpes-de-haute-provence",
            "department_number": "04",
            "region_name": "provence-alpes-côte d'azur",
            "region_geojson_name": "Provence-Alpes-Côte d'Azur"
        },
        {
            "insee_code": "04108",
            "city_code": "malijai",
            "zip_code": "04510",
            "label": "malijai",
            "latitude": "44.033998504",
            "longitude": "6.050637253",
            "department_name": "alpes-de-haute-provence",
            "department_number": "04",
            "region_name": "provence-alpes-côte d'azur",
            "region_geojson_name": "Provence-Alpes-Côte d'Azur"
        },
        {
            "insee_code": "04128",
            "city_code": "montfuron",
            "zip_code": "04110",
            "label": "montfuron",
            "latitude": "43.831686468",
            "longitude": "5.68830119",
            "department_name": "alpes-de-haute-provence",
            "department_number": "04",
            "region_name": "provence-alpes-côte d'azur",
            "region_geojson_name": "Provence-Alpes-Côte d'Azur"
        },
        {
            "insee_code": "04162",
            "city_code": "revest des brousses",
            "zip_code": "04150",
            "label": "revest des brousses",
            "latitude": "43.975680167",
            "longitude": "5.675048844",
            "department_name": "alpes-de-haute-provence",
            "department_number": "04",
            "region_name": "provence-alpes-côte d'azur",
            "region_geojson_name": "Provence-Alpes-Côte d'Azur"
        },
        {
            "insee_code": "04169",
            "city_code": "la rochegiron",
            "zip_code": "04150",
            "label": "la rochegiron",
            "latitude": "44.109813138",
            "longitude": "5.664069611",
            "department_name": "alpes-de-haute-provence",
            "department_number": "04",
            "region_name": "provence-alpes-côte d'azur",
            "region_geojson_name": "Provence-Alpes-Côte d'Azur"
        },
        {
            "insee_code": "04201",
            "city_code": "saumane",
            "zip_code": "04150",
            "label": "saumane",
            "latitude": "44.08124592",
            "longitude": "5.681884937",
            "department_name": "alpes-de-haute-provence",
            "department_number": "04",
            "region_name": "provence-alpes-côte d'azur",
            "region_geojson_name": "Provence-Alpes-Côte d'Azur"
        },
        {
            "insee_code": "04208",
            "city_code": "simiane la rotonde",
            "zip_code": "04150",
            "label": "simiane la rotonde",
            "latitude": "43.983812399",
            "longitude": "5.562440077",
            "department_name": "alpes-de-haute-provence",
            "department_number": "04",
            "region_name": "provence-alpes-côte d'azur",
            "region_geojson_name": "Provence-Alpes-Côte d'Azur"
        },
        {
            "insee_code": "04210",
            "city_code": "soleilhas",
            "zip_code": "04120",
            "label": "soleilhas",
            "latitude": "43.860287405",
            "longitude": "6.648283226",
            "department_name": "alpes-de-haute-provence",
            "department_number": "04",
            "region_name": "provence-alpes-côte d'azur",
            "region_geojson_name": "Provence-Alpes-Côte d'Azur"
        },